{
"type": "FeatureCollection",
"name": "output_data",
"crs": { "type": "name", "properties": { "name": "urn:ogc:def:crs:OGC:1.3:CRS84" } },
"features": [
{ "type": "Feature", "properties": { "Location": "La Paz", "Site": null, "Reef_name": null, "Latitude": 24.1426, "Longitude": -110.3128, "Type": "RockyReefs" }, "geometry": { "type": "Point", "coordinates": [ -110.3128, 24.1426 ] } },
{ "type": "Feature", "properties": { "Location": "Cerralvo", "Site": "Reina", "Reef_name": "CERRALVO_REINA", "Latitude": 24.388762, "Longitude": -109.939961, "Type": "RockyReefs" }, "geometry": { "type": "Point", "coordinates": [ -109.939961, 24.388762 ] } },
{ "type": "Feature", "properties": { "Location": "Cerralvo", "Site": "Carpintero", "Reef_name": "CERRALVO_CARPINTERO", "Latitude": 24.325098, "Longitude": -109.939613, "Type": "RockyReefs" }, "geometry": { "type": "Point", "coordinates": [ -109.939613, 24.325098 ] } },
{ "type": "Feature", "properties": { "Location": "Cerralvo", "Site": "Cerralvo Punta Sur Este", "Reef_name": "CERRALVO_PUNTA_SUR_ESTE", "Latitude": 24.136251, "Longitude": -109.801504, "Type": "RockyReefs" }, "geometry": { "type": "Point", "coordinates": [ -109.801504, 24.136251 ] } },
{ "type": "Feature", "properties": { "Location": "Punta Arenas", "Site": "Punta Perico", "Reef_name": "PUNTA_PERICO", "Latitude": 24.014233, "Longitude": -109.806733, "Type": "RockyReefs" }, "geometry": { "type": "Point", "coordinates": [ -109.806733, 24.014233 ] } },
{ "type": "Feature", "properties": { "Location": "Espiritu Santo", "Site": "Espiritu Santo Punta lobos", "Reef_name": "ESPIRITU_SANTO_PUNTA_LOBOS", "Latitude": 24.475421, "Longitude": -110.289305, "Type": "RockyReefs" }, "geometry": { "type": "Point", "coordinates": [ -110.289305, 24.475421 ] } },
{ "type": "Feature", "properties": { "Location": "Espiritu Santo", "Site": "Espiritu Santo Pailebote", "Reef_name": "ESPIRITU_SANTO_PAILEBOTE", "Latitude": 24.504571, "Longitude": -110.308406, "Type": "RockyReefs" }, "geometry": { "type": "Point", "coordinates": [ -110.308406, 24.504571 ] } },
{ "type": "Feature", "properties": { "Location": "Espiritu Santo", "Site": "Islote Este", "Reef_name": "ESPIRITU_SANTO_ISLOTES_ESTE", "Latitude": 24.598899, "Longitude": -110.399831, "Type": "RockyReefs" }, "geometry": { "type": "Point", "coordinates": [ -110.399831, 24.598899 ] } },
{ "type": "Feature", "properties": { "Location": "San Josè", "Site": "Pardito Faro Lobera", "Reef_name": "PARDITO_FARO_LOBERA", "Latitude": 24.842937, "Longitude": -110.605687, "Type": "RockyReefs" }, "geometry": { "type": "Point", "coordinates": [ -110.605687, 24.842937 ] } },
{ "type": "Feature", "properties": { "Location": "San Josè", "Site": "Las Animas Pinnaculos", "Reef_name": "SAN_JOSE_ANIMAS_PINACULOS", "Latitude": 25.089468, "Longitude": -110.566743, "Type": "RockyReefs" }, "geometry": { "type": "Point", "coordinates": [ -110.566743, 25.089468 ] } },
{ "type": "Feature", "properties": { "Location": "San Josè", "Site": "San Diego Abnegado", "Reef_name": "SAN_DIEGO_ABNEGADO", "Latitude": 25.182633, "Longitude": -110.710011, "Type": "RockyReefs" }, "geometry": { "type": "Point", "coordinates": [ -110.710011, 25.182633 ] } },
{ "type": "Feature", "properties": { "Location": "Mainland", "Site": "Aguaverde", "Reef_name": "ISLOTE_AGUA_VERDE", "Latitude": 25.532478, "Longitude": -111.063858, "Type": "RockyReefs" }, "geometry": { "type": "Point", "coordinates": [ -111.063858, 25.532478 ] } },
{ "type": "Feature", "properties": { "Location": "Monserrat", "Site": "Monserrat Punta Sureste", "Reef_name": "MONSERRAT_PUNTA_SURESTE", "Latitude": 25.675881, "Longitude": -111.011271, "Type": "RockyReefs" }, "geometry": { "type": "Point", "coordinates": [ -111.011271, 25.675881 ] } },
{ "type": "Feature", "properties": { "Location": "Monserrat", "Site": "Monserrat Galeras", "Reef_name": "MONSERRAT_GALERAS", "Latitude": 25.742757, "Longitude": -111.046611, "Type": "RockyReefs" }, "geometry": { "type": "Point", "coordinates": [ -111.046611, 25.742757 ] } },
{ "type": "Feature", "properties": { "Location": "Carmen", "Site": "Carmen Punta Perico", "Reef_name": "CARMEN_PUNTA_PERICO", "Latitude": 25.965265, "Longitude": -111.067303, "Type": "RockyReefs" }, "geometry": { "type": "Point", "coordinates": [ -111.067303, 25.965265 ] } },
{ "type": "Feature", "properties": { "Location": "Coronado", "Site": "Coronado Lajas", "Reef_name": "CORONADO_LAJAS", "Latitude": 26.126188, "Longitude": -111.258743, "Type": "RockyReefs" }, "geometry": { "type": "Point", "coordinates": [ -111.258743, 26.126188 ] } },
{ "type": "Feature", "properties": { "Location": "Coronado", "Site": "Coronado Punta Blanca", "Reef_name": "CORONADO_PUNTA_BLANCA", "Latitude": 26.137812, "Longitude": -111.265291, "Type": "RockyReefs" }, "geometry": { "type": "Point", "coordinates": [ -111.265291, 26.137812 ] } },
{ "type": "Feature", "properties": { "Location": "San Basilio", "Site": "SB_23", "Reef_name": "SB_23", "Latitude": 26.348617, "Longitude": -111.399072, "Type": "RockyReefs" }, "geometry": { "type": "Point", "coordinates": [ -111.399072, 26.348617 ] } },
{ "type": "Feature", "properties": { "Location": "San Basilio", "Site": "SB_10", "Reef_name": "SB_10", "Latitude": 26.372988, "Longitude": -111.421002, "Type": "RockyReefs" }, "geometry": { "type": "Point", "coordinates": [ -111.421002, 26.372988 ] } },
{ "type": "Feature", "properties": { "Location": "San Basilio", "Site": "SB_19", "Reef_name": "SB_19", "Latitude": 26.383629, "Longitude": -111.427208, "Type": "RockyReefs" }, "geometry": { "type": "Point", "coordinates": [ -111.427208, 26.383629 ] } },
{ "type": "Feature", "properties": { "Location": "San Basilio", "Site": "Pulpito", "Reef_name": "PULPITO", "Latitude": 26.516189, "Longitude": -111.442401, "Type": "RockyReefs" }, "geometry": { "type": "Point", "coordinates": [ -111.442401, 26.516189 ] } },
{ "type": "Feature", "properties": { "Location": "Isla Tortuga", "Site": "Tortuga Punta Oeste", "Reef_name": "TORTUGA_PUNTA_OESTE", "Latitude": 27.450869, "Longitude": -111.902138, "Type": "RockyReefs" }, "geometry": { "type": "Point", "coordinates": [ -111.902138, 27.450869 ] } },
{ "type": "Feature", "properties": { "Location": "Isla Tortuga", "Site": "Tortuga Punta Sur", "Reef_name": "TORTUGA_PUNTA_SUR", "Latitude": 27.429888, "Longitude": -111.862531, "Type": "RockyReefs" }, "geometry": { "type": "Point", "coordinates": [ -111.862531, 27.429888 ] } },
{ "type": "Feature", "properties": { "Location": "San Marcos", "Site": "San Marcos Este", "Reef_name": "SAN_MARCOS_ESTE", "Latitude": 27.223216, "Longitude": -112.045528, "Type": "RockyReefs" }, "geometry": { "type": "Point", "coordinates": [ -112.045528, 27.223216 ] } },
{ "type": "Feature", "properties": { "Location": "Isla Carmen", "Site": "Carmen Abismo", "Reef_name": "CARMEN_ABISMO", "Latitude": 25.841984, "Longitude": -111.232972, "Type": "RockyReefs" }, "geometry": { "type": "Point", "coordinates": [ -111.232972, 25.841984 ] } },
{ "type": "Feature", "properties": { "Location": "Isla Danzante", "Site": "Danzante Biznaga", "Reef_name": "DANZANTE_BIZNAGA", "Latitude": 25.815202, "Longitude": -111.260062, "Type": "RockyReefs" }, "geometry": { "type": "Point", "coordinates": [ -111.260062, 25.815202 ] } },
{ "type": "Feature", "properties": { "Location": "Isla Carmen", "Site": "Carmen Tintorera", "Reef_name": "CARMEN_TINTORERA", "Latitude": 26.064886, "Longitude": -111.131847, "Type": "RockyReefs" }, "geometry": { "type": "Point", "coordinates": [ -111.131847, 26.064886 ] } },
{ "type": "Feature", "properties": { "Location": "Isla Carmen", "Site": "Carmen Punta Lobos", "Reef_name": "CARMEN_PUNTA_LOBOS", "Latitude": 26.068839, "Longitude": -111.070127, "Type": "RockyReefs" }, "geometry": { "type": "Point", "coordinates": [ -111.070127, 26.068839 ] } },
{ "type": "Feature", "properties": { "Location": "Isla Danzante", "Site": "Punta Sureste", "Reef_name": "DANZANTE_PUNTA_SURESTE", "Latitude": 25.763561, "Longitude": -111.243521, "Type": "RockyReefs" }, "geometry": { "type": "Point", "coordinates": [ -111.243521, 25.763561 ] } },
{ "type": "Feature", "properties": { "Location": "Isla Danzante", "Site": "Punta Este", "Reef_name": "DANZANTE_PUNTA_ESTE", "Latitude": 25.788956, "Longitude": -111.242819, "Type": "RockyReefs" }, "geometry": { "type": "Point", "coordinates": [ -111.242819, 25.788956 ] } },
{ "type": "Feature", "properties": { "Location": "Isla Danzante", "Site": "Punta Noroeste", "Reef_name": "DANZANTE_PUNTA_NOROESTE", "Latitude": 25.800718, "Longitude": -111.257608, "Type": "RockyReefs" }, "geometry": { "type": "Point", "coordinates": [ -111.257608, 25.800718 ] } },
{ "type": "Feature", "properties": { "Location": "Isla Danzante", "Site": "Islote Bianco", "Reef_name": "LORETO_ISLOTE_BLANCO", "Latitude": 25.743735, "Longitude": -111.225664, "Type": "RockyReefs" }, "geometry": { "type": "Point", "coordinates": [ -111.225664, 25.743735 ] } },
{ "type": "Feature", "properties": { "Location": "Isla Catalana", "Site": "Catalana Punta Norte", "Reef_name": "CATALANA_PUNTA_NORTE", "Latitude": 25.713889, "Longitude": -110.774444, "Type": "RockyReefs" }, "geometry": { "type": "Point", "coordinates": [ -110.774444, 25.713889 ] } },
{ "type": "Feature", "properties": { "Location": "Isla Catalana", "Site": "Catalana Punta Sur", "Reef_name": "CATALANA_PUNTA_SUR", "Latitude": 25.593158, "Longitude": -110.759095, "Type": "RockyReefs" }, "geometry": { "type": "Point", "coordinates": [ -110.759095, 25.593158 ] } },
{ "type": "Feature", "properties": { "Location": "Isla Catalana", "Site": "Catalana Punta Arena", "Reef_name": "CATALANA_PUNTA_ARENAS", "Latitude": 25.671111, "Longitude": -110.766667, "Type": "RockyReefs" }, "geometry": { "type": "Point", "coordinates": [ -110.766667, 25.671111 ] } },
{ "type": "Feature", "properties": { "Location": "Isla Catalana", "Site": "Catalana Punta Oeste", "Reef_name": "CATALANA_PUNTA_OESTE", "Latitude": 25.685011, "Longitude": -110.799167, "Type": "RockyReefs" }, "geometry": { "type": "Point", "coordinates": [ -110.799167, 25.685011 ] } },
{ "type": "Feature", "properties": { "Location": "Mainland", "Site": "Punta Botella", "Reef_name": "PUNTA_BOTELLA", "Latitude": 25.292517, "Longitude": -110.93405, "Type": "RockyReefs" }, "geometry": { "type": "Point", "coordinates": [ -110.93405, 25.292517 ] } },
{ "type": "Feature", "properties": { "Location": "Mainland", "Site": "Refugio Morena", "Reef_name": "REFUGIO_MORENA", "Latitude": 25.245621, "Longitude": -110.922071, "Type": "RockyReefs" }, "geometry": { "type": "Point", "coordinates": [ -110.922071, 25.245621 ] } },
{ "type": "Feature", "properties": { "Location": "Mainland", "Site": "Habana", "Reef_name": "HABANA", "Latitude": 25.129618, "Longitude": -110.861821, "Type": "RockyReefs" }, "geometry": { "type": "Point", "coordinates": [ -110.861821, 25.129618 ] } },
{ "type": "Feature", "properties": { "Location": "Mainland", "Site": "Burros", "Reef_name": "BURROS", "Latitude": 25.032361, "Longitude": -110.803731, "Type": "RockyReefs" }, "geometry": { "type": "Point", "coordinates": [ -110.803731, 25.032361 ] } },
{ "type": "Feature", "properties": { "Location": "San Evaristo", "Site": "San Evaristo Punta Norte", "Reef_name": "SAN_EVARISTO_PUNTA_NORTE", "Latitude": 24.919291, "Longitude": -110.702781, "Type": "RockyReefs" }, "geometry": { "type": "Point", "coordinates": [ -110.702781, 24.919291 ] } },
{ "type": "Feature", "properties": { "Location": "Pardito", "Site": "Pardito Refugio", "Reef_name": "PARDITO_REFUGIO", "Latitude": 24.853533, "Longitude": -110.579633, "Type": "RockyReefs" }, "geometry": { "type": "Point", "coordinates": [ -110.579633, 24.853533 ] } },
{ "type": "Feature", "properties": { "Location": "San Francisco", "Site": "San Francisco Punta Norte", "Reef_name": "SAN_FRANCISCO_PUNTA_NORTE_FARO", "Latitude": 24.842971, "Longitude": -110.566011, "Type": "RockyReefs" }, "geometry": { "type": "Point", "coordinates": [ -110.566011, 24.842971 ] } },
{ "type": "Feature", "properties": { "Location": "San Francisco", "Site": "San Francisco Punta Sur", "Reef_name": "SAN_FRANCISCO_PUNTA_SUR", "Latitude": 24.813921, "Longitude": -110.564321, "Type": "RockyReefs" }, "geometry": { "type": "Point", "coordinates": [ -110.564321, 24.813921 ] } },
{ "type": "Feature", "properties": { "Location": "Mainland", "Site": "Portugues", "Reef_name": "PORTUGUES", "Latitude": 24.747083, "Longitude": -110.677231, "Type": "RockyReefs" }, "geometry": { "type": "Point", "coordinates": [ -110.677231, 24.747083 ] } },
{ "type": "Feature", "properties": { "Location": "Mainland", "Site": "Punta Coyote", "Reef_name": "PUNTA_COYOTE", "Latitude": 24.706066, "Longitude": -110.688271, "Type": "RockyReefs" }, "geometry": { "type": "Point", "coordinates": [ -110.688271, 24.706066 ] } },
{ "type": "Feature", "properties": { "Location": "Espiritu Santo", "Site": "Partida Noroeste", "Reef_name": "ESPIRITU_SANTO_PARTIDA_NORESTE", "Latitude": 24.562008, "Longitude": -110.366446, "Type": "RockyReefs" }, "geometry": { "type": "Point", "coordinates": [ -110.366446, 24.562008 ] } },
{ "type": "Feature", "properties": { "Location": "Espiritu Santo", "Site": "Islote Norte", "Reef_name": "ESPIRITU_SANTO_ISLOTES_NORTE", "Latitude": 24.599432, "Longitude": -110.401188, "Type": "RockyReefs" }, "geometry": { "type": "Point", "coordinates": [ -110.401188, 24.599432 ] } },
{ "type": "Feature", "properties": { "Location": "Espiritu Santo", "Site": "Ballena", "Reef_name": "ESPIRITU_SANTO_BALLENA", "Latitude": 24.482352, "Longitude": -110.399837, "Type": "RockyReefs" }, "geometry": { "type": "Point", "coordinates": [ -110.399837, 24.482352 ] } },
{ "type": "Feature", "properties": { "Location": null, "Site": "6", "Reef_name": "El Sauzoso", "Latitude": 24.31305, "Longitude": -110.63929, "Type": "Sargassum" }, "geometry": { "type": "Point", "coordinates": [ -110.63929, 24.31305 ] } },
{ "type": "Feature", "properties": { "Location": null, "Site": "7", "Reef_name": null, "Latitude": 24.39319, "Longitude": -110.68211, "Type": "Sargassum" }, "geometry": { "type": "Point", "coordinates": [ -110.68211, 24.39319 ] } },
{ "type": "Feature", "properties": { "Location": null, "Site": "12", "Reef_name": "Sitio de monitoreo 7 (El Coyote)", "Latitude": 24.71384, "Longitude": -110.68894, "Type": "Sargassum" }, "geometry": { "type": "Point", "coordinates": [ -110.68894, 24.71384 ] } },
{ "type": "Feature", "properties": { "Location": null, "Site": "15", "Reef_name": "Botafuego", "Latitude": 24.75776, "Longitude": -110.67131, "Type": "Sargassum" }, "geometry": { "type": "Point", "coordinates": [ -110.67131, 24.75776 ] } },
{ "type": "Feature", "properties": { "Location": null, "Site": "16", "Reef_name": "Sitio de monitoreo 6 (Uña de gato)", "Latitude": 24.84544, "Longitude": -110.6751, "Type": "Sargassum" }, "geometry": { "type": "Point", "coordinates": [ -110.6751, 24.84544 ] } },
{ "type": "Feature", "properties": { "Location": null, "Site": "17", "Reef_name": "Sitio de monitoreo 1 (Sur de Isla San José)", "Latitude": 24.87147, "Longitude": -110.55541, "Type": "Sargassum" }, "geometry": { "type": "Point", "coordinates": [ -110.55541, 24.87147 ] } },
{ "type": "Feature", "properties": { "Location": null, "Site": "18", "Reef_name": "Sitio de monitoreo 2", "Latitude": 24.89695, "Longitude": -110.59091, "Type": "Sargassum" }, "geometry": { "type": "Point", "coordinates": [ -110.59091, 24.89695 ] } },
{ "type": "Feature", "properties": { "Location": null, "Site": "19", "Reef_name": "Sitio de monitoreo 5", "Latitude": 24.90303, "Longitude": -110.70415, "Type": "Sargassum" }, "geometry": { "type": "Point", "coordinates": [ -110.70415, 24.90303 ] } },
{ "type": "Feature", "properties": { "Location": null, "Site": "20", "Reef_name": "Sitio de monitoreo 4", "Latitude": 24.94322, "Longitude": -110.73005, "Type": "Sargassum" }, "geometry": { "type": "Point", "coordinates": [ -110.73005, 24.94322 ] } },
{ "type": "Feature", "properties": { "Location": null, "Site": "21", "Reef_name": "Sitio de monitoreo 3", "Latitude": 24.97607, "Longitude": -110.66343, "Type": "Sargassum" }, "geometry": { "type": "Point", "coordinates": [ -110.66343, 24.97607 ] } },
{ "type": "Feature", "properties": { "Location": null, "Site": "22", "Reef_name": "Sitio de monitoreo 10", "Latitude": 25.14226, "Longitude": -110.90369, "Type": "Sargassum" }, "geometry": { "type": "Point", "coordinates": [ -110.90369, 25.14226 ] } },
{ "type": "Feature", "properties": { "Location": null, "Site": "23", "Reef_name": "Sitio de monitoreo 11", "Latitude": 25.20772, "Longitude": -110.92028, "Type": "Sargassum" }, "geometry": { "type": "Point", "coordinates": [ -110.92028, 25.20772 ] } },
{ "type": "Feature", "properties": { "Location": null, "Site": "24", "Reef_name": "Sitio de monitoreo 12", "Latitude": 25.27146, "Longitude": -110.93778, "Type": "Sargassum" }, "geometry": { "type": "Point", "coordinates": [ -110.93778, 25.27146 ] } },
{ "type": "Feature", "properties": { "Location": null, "Site": "25", "Reef_name": "Sitio de monitoreo 9", "Latitude": 25.32798, "Longitude": -110.95377, "Type": "Sargassum" }, "geometry": { "type": "Point", "coordinates": [ -110.95377, 25.32798 ] } },
{ "type": "Feature", "properties": { "Location": null, "Site": "26", "Reef_name": "Sitio de monitoreo 8", "Latitude": 25.53862, "Longitude": -111.12717, "Type": "Sargassum" }, "geometry": { "type": "Point", "coordinates": [ -111.12717, 25.53862 ] } },
{ "type": "Feature", "properties": { "Location": null, "Site": "27", "Reef_name": "El Triunfo", "Latitude": 25.64926, "Longitude": -111.19947, "Type": "Sargassum" }, "geometry": { "type": "Point", "coordinates": [ -111.19947, 25.64926 ] } },
{ "type": "Feature", "properties": { "Location": null, "Site": "28", "Reef_name": "No. 7 (sin nombre)", "Latitude": 25.79854, "Longitude": -111.2567, "Type": "Sargassum" }, "geometry": { "type": "Point", "coordinates": [ -111.2567, 25.79854 ] } },
{ "type": "Feature", "properties": { "Location": null, "Site": "29", "Reef_name": "Puerto Escondido", "Latitude": 25.80432, "Longitude": -111.30884, "Type": "Sargassum" }, "geometry": { "type": "Point", "coordinates": [ -111.30884, 25.80432 ] } },
{ "type": "Feature", "properties": { "Location": null, "Site": "30", "Reef_name": "Punta Baja", "Latitude": 25.81189, "Longitude": -111.2123, "Type": "Sargassum" }, "geometry": { "type": "Point", "coordinates": [ -111.2123, 25.81189 ] } },
{ "type": "Feature", "properties": { "Location": null, "Site": "31", "Reef_name": "Notri", "Latitude": 25.85987, "Longitude": -111.33291, "Type": "Sargassum" }, "geometry": { "type": "Point", "coordinates": [ -111.33291, 25.85987 ] } },
{ "type": "Feature", "properties": { "Location": null, "Site": "32", "Reef_name": "No. 3 (Sin nombre)", "Latitude": 25.91015, "Longitude": -111.33791, "Type": "Sargassum" }, "geometry": { "type": "Point", "coordinates": [ -111.33791, 25.91015 ] } },
{ "type": "Feature", "properties": { "Location": null, "Site": "33", "Reef_name": "Bajo Tierra Firme", "Latitude": 26.09316, "Longitude": -111.32147, "Type": "Sargassum" }, "geometry": { "type": "Point", "coordinates": [ -111.32147, 26.09316 ] } },
{ "type": "Feature", "properties": { "Location": null, "Site": "34", "Reef_name": "El Bajo de Coronado", "Latitude": 26.09733, "Longitude": -111.29587, "Type": "Sargassum" }, "geometry": { "type": "Point", "coordinates": [ -111.29587, 26.09733 ] } },
{ "type": "Feature", "properties": { "Location": null, "Site": "35", "Reef_name": null, "Latitude": 26.55926, "Longitude": -111.76644, "Type": "Sargassum" }, "geometry": { "type": "Point", "coordinates": [ -111.76644, 26.55926 ] } },
{ "type": "Feature", "properties": { "Location": null, "Site": "36", "Reef_name": "El Manglito", "Latitude": 26.55862, "Longitude": -111.76576, "Type": "Sargassum" }, "geometry": { "type": "Point", "coordinates": [ -111.76576, 26.55862 ] } },
{ "type": "Feature", "properties": { "Location": null, "Site": "37", "Reef_name": "Sitio 4", "Latitude": 26.61226, "Longitude": -111.80215, "Type": "Sargassum" }, "geometry": { "type": "Point", "coordinates": [ -111.80215, 26.61226 ] } },
{ "type": "Feature", "properties": { "Location": null, "Site": "38", "Reef_name": "Sin nombre", "Latitude": 26.61252, "Longitude": -111.80208, "Type": "Sargassum" }, "geometry": { "type": "Point", "coordinates": [ -111.80208, 26.61252 ] } },
{ "type": "Feature", "properties": { "Location": null, "Site": "39", "Reef_name": null, "Latitude": 26.642, "Longitude": -111.82949, "Type": "Sargassum" }, "geometry": { "type": "Point", "coordinates": [ -111.82949, 26.642 ] } },
{ "type": "Feature", "properties": { "Location": null, "Site": "40", "Reef_name": "El Requesón", "Latitude": 26.63996, "Longitude": -111.828, "Type": "Sargassum" }, "geometry": { "type": "Point", "coordinates": [ -111.828, 26.63996 ] } },
{ "type": "Feature", "properties": { "Location": null, "Site": "41", "Reef_name": null, "Latitude": 26.70274, "Longitude": -111.87801, "Type": "Sargassum" }, "geometry": { "type": "Point", "coordinates": [ -111.87801, 26.70274 ] } },
{ "type": "Feature", "properties": { "Location": null, "Site": "42", "Reef_name": "Santa Barbara", "Latitude": 26.70237, "Longitude": -111.87795, "Type": "Sargassum" }, "geometry": { "type": "Point", "coordinates": [ -111.87795, 26.70237 ] } },
{ "type": "Feature", "properties": { "Location": null, "Site": "43", "Reef_name": null, "Latitude": 26.75966, "Longitude": -111.88132, "Type": "Sargassum" }, "geometry": { "type": "Point", "coordinates": [ -111.88132, 26.75966 ] } },
{ "type": "Feature", "properties": { "Location": null, "Site": "44", "Reef_name": "Santispac", "Latitude": 26.7597, "Longitude": -111.87618, "Type": "Sargassum" }, "geometry": { "type": "Point", "coordinates": [ -111.87618, 26.7597 ] } },
{ "type": "Feature", "properties": { "Location": null, "Site": "45", "Reef_name": "Cerro del Macho-San Pedro", "Latitude": 26.83729, "Longitude": -111.87524, "Type": "Sargassum" }, "geometry": { "type": "Point", "coordinates": [ -111.87524, 26.83729 ] } }
]
}
